{
  "branchs": [
    {
      "city": "上海市",
      "city_branch": [
        {
          "name": "恒生银行（中国）有限公司",
          "address": "中国上海市陆家嘴环路1000号恒生银行大厦34层及36层",
          "lat": "31.240146",
          "lag": "121.507366"
        },
        {
          "name": "上海分行",
          "address": "中国上海市浦东新区陆家嘴环路1000号恒生银行大厦首层101单元及35楼",
          "lat": "31.240146",
          "lag": "121.507366"
        },
        {
          "name": "上海静安嘉里中心支行",
          "address": "中国上海市静安区延安中路1238号静安嘉里中心商场S1-200单元",
          "lat": "31.223142",
          "lag": "121.449176"
        },
        {
          "name": "上海自贸试验区支行",
          "address": "上海市浦东新区陆家嘴环路1000号恒生银行大厦35-041单元",
          "lat": "31.240146",
          "lag": "121.507366"
        },
        {
          "name": "上海安福路支行",
          "address": "中国上海市徐汇区安福路156号",
          "lat": "31.214417",
          "lag": "121.445000"
        },
        {
          "name": "上海徐家汇支行",
          "address": "中国上海市徐汇区天钥桥路333号南腾飞大厦一层122&123&123A室",
          "lat": "31.188319",
          "lag": "121.442344"
        },
        {
          "name": "上海古北支行",
          "address": "中国上海市长宁区娄山关路35号1层7-8号",
          "lat": "31.202824",
          "lag": "121.402257"
        },
        {
          "name": "上海大拇指支行",
          "address": "中国上海市浦东新区迎春路1050号1层",
          "lat": "31.225272",
          "lag": "121.559350"
        },
        {
          "name": "上海静安支行",
          "address": "中国上海市静安区石门一路60、66号1-2层",
          "lat": "31.225137",
          "lag": "121.463165"
        },
        {
          "name": "上海淮海路支行",
          "address": "中国上海市黄浦区淮海中路300号香港新世界大厦39层02室及B2层B233室",
          "lat": "31.223541",
          "lag": "121.473570"
        },
        {
          "name": "上海虹桥支行",
          "address": "中国上海市长宁区长宁路1123号长宁来福士广场（E）01层27号",
          "lat": "31.217393",
          "lag": "121.406675"
        },
        {
          "name": "上海黄浦区瑞金路支行",
          "address": "上海市黄浦区徐家汇路618号日月光中心广场1F-XJH03室",
          "lat": "31.206604",
          "lag": "121.468113"
        }
      ]
    },
    {
      "city": "北京市",
      "city_branch": [
        {
          "name": "北京分行",
          "address": "中国北京市朝阳区光华路1号嘉里中心写字楼南楼1816-1828单元",
          "lat": "39.913744",
          "lag": "116.460458"
        },
        {
          "name": "北京中关村支行",
          "address": "中国北京市海淀区丹棱街3号中国电子大厦A座103室",
          "lat": "39.979574",
          "lag": "116.311359"
        },
        {
          "name": "北京酒仙桥支行",
          "address": "中国北京市朝阳区酒仙桥路18 号一层159 号单元",
          "lat": "39.969325",
          "lag": "116.490641"
        },
        {
          "name": "北京工体北路支行",
          "address": "中国北京市东城区工体北路66号瑞士公寓一号楼L105、L205单元",
          "lat": "39.933256",
          "lag": "116.436776"
        },
        {
          "name": "北京嘉里中心支行",
          "address": "中国北京市朝阳区光华路1号嘉里中心写字楼南楼1829-1830单元",
          "lat": "39.913744",
          "lag": "116.460458"
        },
        {
          "name": "北京香港马会会所自动取款机",
          "address": "中国北京市东城区金宝街68号",
          "lat": "39.914891",
          "lag": "116.423870"
        }
      ]
    },
    {
      "city": "天津市",
      "city_branch": [
        {
          "name": "天津分行",
          "address": "中国天津市和平区南京路189号津汇广场写字楼2座1601室",
          "lat": "39.117792",
          "lag": "117.197913"
        },
        {
          "name": "天津津门支行",
          "address": "中国天津市和平区张自忠路156号增3号铺",
          "lat": "39.129783",
          "lag": "117.197057"
        }
      ]
    },
    {
      "city": "南京市",
      "city_branch": [
        {
          "name": "南京分行",
          "address": "中国南京市鼓楼区汉中路2号亚太商务楼12层A、E、F单元",
          "lat": "32.043587",
          "lag": "118.782972"
        }
      ]
    },
    {
      "city": "杭州市",
      "city_branch": [
        {
          "name": "杭州分行",
          "address": "杭州市延安路385号杭州嘉里中心2幢（商）1号及2幢7层701,702室",
          "lat": "30.258717",
          "lag": "120.163050"
        }
      ]
    },
    {
      "city": "宁波市",
      "city_branch": [
        {
          "name": "宁波分行",
          "address": "中国宁波市江东区中山东路1848号嘉恒广场三楼3-1 & 3-2",
          "lat": "29.855440",
          "lag": "121.615874"
        }
      ]
    },
    {
      "city": "福州市",
      "city_branch": [
        {
          "name": "福州分行",
          "address": "中国福建省福州市鼓楼区古田路139号御泉花园商业群楼一层09单元、二层05-09单元",
          "lat": "26.075995",
          "lag": "119.316723"
        },
        {
          "name": "福州鼓楼支行",
          "address": "中国福建省福州市鼓楼区温泉街道五四路89号置地广场1层01店面",
          "lat": "26.094006",
          "lag": "119.307118"
        }
      ]
    },
    {
      "city": "厦门市",
      "city_branch": [
        {
          "name": "厦门分行",
          "address": "中国福建省厦门市鹭江道100号财富中心11层01、02单元",
          "lat": "24.458090",
          "lag": "118.072670"
        }
      ]
    },
    {
      "city": "广州市",
      "city_branch": [
        {
          "name": "广州分行",
          "address": "中国广东省广州市天河区珠江新城花城大道18号建滔广场一楼01楼单元及办公楼25楼",
          "lat": "23.119050",
          "lag": "113.317248"
        },
        {
          "name": "广州珠江新城支行",
          "address": "广州市天河区珠江新城花城大道84号首层至4层首层自编109、110",
          "lat": "23.118387",
          "lag": "113.330289"
        },
        {
          "name": "广州中信广场支行",
          "address": "中国广东省广州市天河区天河北路233号137-140铺，250铺",
          "lat": "23.141790",
          "lag": "113.324820"
        },
        {
          "name": "广州越秀支行",
          "address": "中国广州市越秀区新天地街5号101",
          "lat": "23.125157",
          "lag": "113.312782"
        },
        {
          "name": "广州江南西路支行",
          "address": "中国广东省广州市海珠区江南西路110号首层",
          "lat": "23.093360",
          "lag": "113.267596"
        },
        {
          "name": "广州天河北路支行",
          "address": "中国广东省广州市天河区天河北路579号1房",
          "lat": "23.141720",
          "lag": "113.337526"
        },
        {
          "name": "广州东山支行",
          "address": "中国广州市越秀区农林下路33号东山汇首层107-108单元",
          "lat": "23.129491",
          "lag": "113.297469"
        }
      ]
    },
    {
      "city": "深圳市",
      "city_branch": [
        {
          "name": "深圳分行",
          "address": "中国深圳市福田区中心四路1号嘉里建设广场第二座第一层04室、第八层",
          "lat": "22.535199",
          "lag": "114.058161"
        },
        {
          "name": "深圳前海支行",
          "address": "深圳市前海深港合作区前湾一路63号前海企业公馆21栋A单元1层。",
          "lat": "22.515162",
          "lag": "113.901273"
        },
        {
          "name": "深圳后海支行",
          "address": "中国深圳市南山区保利文化广场（商业部分）B1-02",
          "lat": "22.516546",
          "lag": "113.938285"
        },
        {
          "name": "深圳福田中心区支行",
          "address": "深圳市福田区福华三路与金田路交汇处卓越世纪中心3、4号楼裙楼第1层1012-1、1013-1、1014-1、1015-1、1016-1",
          "lat": "22.531622",
          "lag": "114.064740"
        },
        {
          "name": "深圳罗湖支行",
          "address": "中国深圳市罗湖区人民南路深圳嘉里中心首层105-109室",
          "lat": "22.537624",
          "lag": "114.119232"
        },
        {
          "name": "深圳高新区支行",
          "address": "深圳市南山区粤海街道深南大道9668号万象天地LG50商铺",
          "lat": "22.541018",
          "lag": "113.955904"
        }
      ]
    },
    {
      "city": "佛山市",
      "city_branch": [
        {
          "name": "佛山支行",
          "address": "广东省佛山市南海区桂城街道南海大道北50号首层",
          "lat": "23.040372",
          "lag": "113.140889"
        },
        {
          "name": "顺德支行",
          "address": "广东省佛山市顺德区大良街道办事处府又社区居民委员会新桂路明日华府123号铺、125号铺、126号铺",
          "lat": "22.832357",
          "lag": "113.273134"
        }
      ]
    },
    {
      "city": "东莞市",
      "city_branch": [
        {
          "name": "东莞分行",
          "address": "中国广东省东莞市东城区东城中路君豪商业中心首层107室、二层201室",
          "lat": "23.032732",
          "lag": "113.775633"
        }
      ]
    },
    {
      "city": "中山市",
      "city_branch": [
        {
          "name": "中山支行",
          "address": "广东省中山市东区中山四路82号首层4卡、5卡",
          "lat": "22.511288",
          "lag": "113.400425"
        }
      ]
    },
    {
      "city": "珠海市",
      "city_branch": [
        {
          "name": "珠海支行",
          "address": "中国广东省珠海市吉大情侣中路51号二栋一单元,二单元一层商铺8号铺",
          "lat": "22.253437",
          "lag": "113.589956"
        }
      ]
    },
    {
      "city": "惠州市",
      "city_branch": [
        {
          "name": "惠州支行",
          "address": "广东省惠州市江北文昌一路11号铂金府华贸大厦3号楼1单元17层03、04、05号房",
          "lat": "23.102894",
          "lag": "114.415316"
        }
      ]
    },
    {
      "city": "江门市",
      "city_branch": [
        {
          "name": "江门支行",
          "address": "广东省江门市蓬江区江门万达广场1幢2913室、2914室",
          "lat": "22.617004",
          "lag": "113.083617"
        }
      ]
    },
    {
      "city": "汕头市",
      "city_branch": [
        {
          "name": "汕头支行",
          "address": "中国广东省汕头市龙湖区金砂路179号合信星湖城2幢103、203号铺面复式；2幢104、204号铺面复式；2幢105、205号铺面复式",
          "lat": "23.367679",
          "lag": "116.747717"
        }
      ]
    },
    {
      "city": "昆明市",
      "city_branch": [
        {
          "name": "昆明分行",
          "address": "中国昆明市五华区崇仁街1号东方柏丰首座商务中心东楼24层2406、2407、2408号单元",
          "lat": "25.033792",
          "lag": "102.708612"
        }
      ]
    },
    {
      "city": "成都市",
      "city_branch": [
        {
          "name": "成都分行",
          "address": "中国四川省成都市锦江区红星路3段1号国际金融中心一号办公楼28楼单元1，9及10",
          "lat": "30.656913",
          "lag": "104.077272"
        }
      ]
    },
    {
      "city": "济南市",
      "city_branch": [
        {
          "name": "济南分行",
          "address": "中国山东省济南市市中区纬二路51号山东商会大厦12层1206、1207、1208单元",
          "lat": "36.659236",
          "lag": "116.997212"
        }
      ]
    }
  ]
}